start,len,seq,sys_id,comp_id,msg_id,timestamp,pressure_ada,pressure_digi,pressure_dpl,airspeed_pitot,msl_altitude,ada_vert_speed,ada_vert_accel,acc_x,acc_y,acc_z,gyro_x,gyro_y,gyro_z,mag_x,mag_y,mag_z,gps_lat,gps_lon,gps_alt,vbat,vsupply_5v,temperature,ab_angle,ab_estimated_cd,nas_x,nas_y,nas_z,nas_vx,nas_vy,nas_vz,nas_roll,nas_pitch,nas_yaw,nas_bias0,nas_bias1,nas_bias2,ada_state,fmm_state,dpl_state,ab_state,nas_state,gps_fix,pin_launch,pin_nosecone,servo_sensor,logger_error
254,162,0,1,1,180,2762,0,85787.3125,89800.65625,96.25305939,0,0,0,9.735050201,0.08973882347,-1.151921034,0.003043018747,0.004672613926,0.001413424034,-28.15494156,-8.298948288,-6.859325886,0,0,0,0,0.1303390115,32.31000137,0,0,0,0,0,0,0,0,0,0,0,0,0,0,0,2,1,1,0,0,1,1,0,0
254,162,1,1,1,180,3012,0,85787.46094,89861.09375,96.35720825,0,0,0,9.72249794,0.08609936386,-1.166481018,0.001241596066,0.005675868131,0.0006772342022,-28.76457977,-8.157323837,-6.789816856,0,0,0,0,0.1303390115,32.34999847,0,0,0,0,0,0,0,0,0,0,0,0,0,0,0,2,1,1,0,0,1,1,0,0
254,162,2,1,1,180,3263,0,85788.08594,89800.65625,96.35691833,0,0,0,9.735817909,0.06207803264,-1.13964963,-0.0002403088874,0.005200970918,0.0010642251,-28.51427841,-8.228144646,-6.859753609,0,0,0,0,0.1305260062,32.38000107,0,0,0,0,0,0,0,0,0,0,0,0,0,0,0,2,1,1,0,0,1,1,0,0
254,162,3,1,1,180,3513,0,85786.78125,89810.71875,96.2537384,0,0,0,9.743233681,0.09018804878,-1.148794174,0.001213881886,0.005420897622,0.000947825436,-28.26040268,-8.086510658,-6.441452503,0,0,0,0,0.130152002,32.40000153,0,0,0,0,0,0,0,0,0,0,0,0,0,0,0,2,1,1,0,0,1,1,0,0
254,162,4,1,1,180,3763,0,85788.80469,89820.80469,96.46053314,0,0,0,9.748143196,0.09048758447,-1.135245442,0.002311364049,0.004855527543,0.0003159418702,-28.29098892,-8.157331467,-6.86010313,0,0,0,12.53128242,0.1303390115,32.41999817,0,0,0,0,0,0,0,0,0,0,0,0,0,0,0,2,1,1,0,0,1,1,0,0
254,162,5,1,1,180,4013,0,85786.44531,89881.25,95.83576965,0,0,0,9.771499634,0.06952220947,-1.144476533,0.007965059951,0.005005184095,6.651406875e-05,-28.4842968,-8.228153229,-6.790373325,0,0,0,12.53128242,0.1303390115,32.43000031,0,0,0,0,0,0,0,0,0,0,0,0,0,0,0,2,1,1,0,0,1,1,0,0
254,162,6,1,1,180,4263,0,85787.74219,89901.39844,96.46110535,0,0,0,9.753349304,0.09887373447,-1.134649873,0.002860105364,0.0045894715,0.001114110812,-28.50136185,-8.794729233,-7.13920927,0,0,0,12.53128242,0.1303390115,32.43999863,0,0,0,0,0,0,0,0,0,0,0,0,0,0,0,2,1,1,0,0,1,1,0,0
254,162,7,1,1,180,4513,0,85790.08594,89891.3125,96.56504822,0,0,0,9.75349617,0.06278333813,-1.163683653,-0.0003159418702,0.00533775473,0.002278107218,-28.04012108,-8.582269669,-6.581302643,0,0,0,12.53128242,0.1303390115,32.45000076,0,0,0,0,0,0,0,0,0,0,0,0,0,0,0,2,1,1,0,0,1,1,0,0
254,162,8,1,1,180,4764,0,85785.92188,89901.39844,96.66861725,0,0,0,9.744720459,0.09498013556,-1.16413033,0.00981082581,0.005620439537,0.00197879388,-28.52533531,-8.440627098,-6.651107788,0,0,0,12.51538372,0.1305260062,32.45000076,0,0,0,0,0,0,0,0,0,0,0,0,0,0,0,2,1,1,0,0,1,1,0,0
254,162,9,1,1,180,5014,0,85785.89062,89911.46094,96.77352905,0,0,0,9.754241943,0.06607790291,-1.154452205,0.007499461062,0.004705870524,0.002261478687,-28.81723213,-8.086512566,-6.720896244,0,0,0,12.51538372,0.1303390115,32.45999908,0,0,0,0,0,0,0,0,0,0,0,0,0,0,0,2,1,1,0,0,1,1,0,0
254,162,10,1,1,180,5264,0,85789.19531,89901.39844,96.14820862,0,0,0,9.763465881,0.06877344847,-1.166214705,0.003841187572,0.004922041669,0.0008314259467,-28.15886497,-8.157337189,-6.790683746,0,0,0,12.51538372,0.1303390115,32.45999908,0,0,0,0,0,0,0,0,0,0,0,0,0,0,0,2,1,1,0,0,1,1,0,0
254,162,11,1,1,180,5514,0,85785.64062,89921.53125,96.04684448,0,0,0,9.753645897,0.074763529,-1.161598921,-0.002095193136,0.004739128053,0.002594048856,-28.44399261,-8.228158951,-6.930182934,0,0,0,12.51538372,0.1303390115,32.47000122,0,0,0,0,0,0,0,0,0,0,0,0,0,0,0,2,1,1,0,0,1,1,0,0
254,162,12,1,1,180,5764,0,85783.6875,89911.46094,96.87812042,0,0,0,9.757555962,0.108462438,-1.158828735,0.001709210104,0.005627494305,0.001693085767,-28.6374855,-8.369807243,-6.651204109,0,0,0,12.50196552,0.130152002,32.47999954,0,0,0,0,0,0,0,0,0,0,0,0,0,0,0,2,1,1,0,0,1,1,0,0
254,162,13,1,1,180,6014,0,85784.17188,89921.53125,96.87684631,0,0,0,9.7647686,0.06751187146,-1.147134185,0.000564361806,0.005176005419,0.001241596183,-27.98249435,-7.944865704,-6.930261612,0,0,0,12.50196552,0.1305260062,32.47999954,0,0,0,0,0,0,0,0,0,0,0,0,0,0,0,2,1,1,0,0,1,1,0,0
254,162,14,1,1,180,6264,0,85786.4375,89901.39844,96.87684631,0,0,0,9.742728233,0.07846388966,-1.134578109,0.0003604633093,0.005544270389,0.0007895867457,-28.00281525,-8.228164673,-6.686250687,0,0,0,12.50196552,0.1303390115,32.49000168,0,0,0,0,0,0,0,0,0,0,0,0,0,0,0,2,1,1,0,0,1,1,0,0
254,162,15,1,1,180,6514,0,85784.39062,89921.53125,96.2543869,0,0,0,9.754837036,0.09872398525,-1.138074398,0.01564743742,0.005703581963,0.0001995422062,-28.71071053,-8.121927261,-6.581595898,0,0,0,12.50196552,0.1303390115,32.49000168,0,0,0,0,0,0,0,0,0,0,0,0,0,0,0,2,1,1,0,0,1,1,0,0
254,162,16,1,1,180,6764,0,85789.53906,89921.53125,96.87534332,0,0,0,9.767780304,0.07521278411,-1.177530408,0.007499461994,0.004522956908,0.003541874699,-28.56300735,-8.228162766,-6.790818691,0,0,0,12.48825455,0.1303390115,32.49000168,0,0,0,0,0,0,0,0,0,0,0,0,0,0,0,2,1,1,0,0,1,1,0,0
254,162,17,1,1,180,7014,0,85786.24219,89911.46094,96.25354767,0,0,0,9.781648636,0.05008612946,-1.126776695,-0.01404454745,0.004627767019,0.002015578095,-28.38308907,-8.157339096,-6.442122459,0,0,0,12.48825455,0.1305260062,32.5,0,0,0,0,0,0,0,0,0,0,0,0,0,0,0,2,1,1,0,0,1,1,0,0
254,162,18,1,1,180,7264,0,85787.67188,89871.17969,96.25077057,0,0,0,9.802595139,0.217328161,-1.113209605,-0.01285384782,0.004639356863,-0.002244849689,-28.66150093,-8.086513519,-6.860589504,0,0,0,12.48825455,0.1305260062,32.5,0,0,0,0,0,0,0,0,0,0,0,0,0,0,0,2,1,1,0,0,1,1,0,0
254,162,19,1,1,180,7514,0,85790.01562,89931.60938,97.08437347,0,0,0,9.746356964,0.09318313748,-1.133458495,-0.06549973041,0.002693820279,-0.001529823756,-28.4815979,-8.15734005,-6.581643105,0,0,0,12.48825455,0.1303390115,32.50999832,0,0,0,0,0,0,0,0,0,0,0,0,0,0,0,2,1,1,0,0,1,1,0,0
254,162,20,1,1,180,7764,0,85785.21094,89931.60938,97.08339691,0,0,0,9.770159721,0.07880684733,-1.209839582,-0.0389938727,0.00382455904,0.002577420091,-28.66147232,-7.94486475,-6.860589504,0,0,0,12.47619343,0.1303390115,32.50999832,0,0,0,0,0,0,0,0,0,0,0,0,0,0,0,2,1,1,0,0,1,1,0,0
254,162,21,1,1,180,8014,0,85783.91406,89941.67188,96.46286011,0,0,0,9.760043144,0.076261051,-1.169788241,-0.004506328609,0.002760333708,0.001297024428,-28.47136307,-8.086514473,-7.069839954,0,0,0,12.47619343,0.1303390115,32.52000046,0,0,0,0,0,0,0,0,0,0,0,0,0,0,0,2,1,1,0,0,1,1,0,0
254,162,22,1,1,180,8264,0,85787.92969,89941.67188,96.97983551,0,0,0,9.774624825,0.08869052678,-1.160556793,0.001463309512,0.004506328609,-0.0007150262827,-28.29485512,-8.157341003,-6.581662178,0,0,0,12.47619343,0.1303390115,32.52000046,0,0,0,0,0,0,0,0,0,0,0,0,0,0,0,2,1,1,0,0,1,1,0,0
254,162,23,1,1,180,8514,0,85788.5625,89931.60938,97.08509827,0,0,0,9.781765938,0.08000490069,-1.142689824,-0.01119099278,0.00480564218,0.0009478255524,-28.56645584,-8.086514473,-6.721088886,0,0,0,12.47619343,0.1303390115,32.52000046,0,0,0,0,0,0,0,0,0,0,0,0,0,0,0,2,1,1,0,0,1,1,0,0
254,162,24,1,1,180,8764,0,85783.79688,89871.17969,97.18831635,0,0,0,9.765696526,0.06458034366,-1.163236618,-0.02534186468,0.004240272101,0.001879022573,-28.29831314,-8.298991203,-6.930438519,0,0,0,12.46256733,0.1303390115,32.52000046,0,0,0,0,0,0,0,0,0,0,0,0,0,0,0,2,1,1,0,0,1,1,0,0
254,162,25,1,1,180,9014,0,85789.75781,89941.67188,97.29065704,0,0,0,9.754958153,0.0936505571,-1.178897142,-0.008417054079,0.004692265298,0.0002257446322,-27.92809486,-7.944865227,-6.790993214,0,0,0,12.46256733,0.1303390115,32.52999878,0,0,0,0,0,0,0,0,0,0,0,0,0,0,0,2,1,1,0,0,1,1,0,0
254,162,26,1,1,180,9264,0,85787.36719,89941.67188,97.28980255,0,0,0,9.773433685,0.06907295436,-1.191526055,0.01508206688,0.005271240603,0.0008480544202,-28.10470009,-8.086515427,-6.790915489,0,0,0,12.46256733,0.1305260062,32.54000092,0,0,0,0,0,0,0,0,0,0,0,0,0,0,0,2,1,1,0,0,1,1,0,0
254,162,27,1,1,180,9514,0,85787.10938,89941.67188,97.0821991,0,0,0,9.778492928,0.03088605031,-1.160854459,-0.00946162641,0.004024101421,8.314252773e-05,-28.58699417,-8.015690804,-6.860704899,0,0,0,12.46256733,0.1303390115,32.54000092,0,0,0,0,0,0,0,0,0,0,0,0,0,0,0,2,1,1,0,0,1,1,0,0
254,162,28,1,1,180,9764,0,85786.45312,89951.75,97.18775177,0,0,0,9.756175995,0.09872398525,-1.202841997,-0.008314258419,0.004606099334,0.001313653076,-28.58007812,-7.944865227,-6.860664368,0,0,0,12.44962215,0.1303390115,32.54000092,0,0,0,0,0,0,0,0,0,0,0,0,0,0,0,2,1,1,0,0,1,1,0,0
254,162,29,1,1,180,10014,0,85783.59375,89951.75,97.08499908,0,0,0,9.775814056,0.06487987936,-1.117229581,-0.01508206408,0.003641645657,1.662853174e-05,-28.39338684,-8.086515427,-6.581679344,0,0,0,12.44962215,0.130152002,32.54000092,0,0,0,0,0,0,0,0,0,0,0,0,0,0,0,2,1,1,0,0,1,1,0,0
254,162,30,1,1,180,10264,0,85786.53125,89881.25,97.18768311,0,0,0,9.779384613,0.04885634407,-1.12824738,-0.01513195131,0.004373300355,0.0006651406875,-28.88261986,-8.369818687,-6.930515766,0,0,0,12.44962215,0.1303390115,32.54999924,0,0,0,0,0,0,0,0,0,0,0,0,0,0,0,2,1,1,0,0,1,1,0,0
254,162,31,1,1,180,10514,0,85786.64844,89891.3125,97.90753937,0,0,0,9.764657974,0.06712614,-1.096682549,0.009129056707,0.004556213971,0.001380167087,-28.60410881,-8.228169441,-7.00030899,0,0,0,12.44962215,0.1303390115,32.54999924,0,0,0,0,0,0,0,0,0,0,0,0,0,0,0,2,1,1,0,0,1,1,0,0
254,162,32,1,1,180,10764,0,85788.46875,89931.60938,97.18833923,0,0,0,9.76554966,0.03073623776,-1.118420839,0.02485962957,0.005803352222,0.0008813114837,-28.87570381,-8.582294464,-6.930475712,0,0,0,12.43949223,0.1305260062,32.56000137,0,0,0,0,0,0,0,0,0,0,0,0,0,0,0,2,1,1,0,0,1,1,0,0
254,162,33,1,1,180,11014,0,85785.96094,89891.3125,97.70192719,0,0,0,9.772541046,0.03433033451,-1.162194848,0.0004655984812,0.004140500911,0.002527534263,-28.41392517,-8.086517334,-6.860806465,0,0,0,12.43949223,0.1303390115,32.56000137,0,0,0,0,0,0,0,0,0,0,0,0,0,0,0,2,1,1,0,0,1,1,0,0
254,162,34,1,1,180,11264,0,85785.00781,89961.82031,97.59934998,0,0,0,9.774921417,0.08389846981,-1.140903354,0.002810220001,0.004522956442,0.002278106986,-28.695858,-8.157341957,-7.000287533,0,0,0,12.43949223,0.1303390115,32.56000137,0,0,0,0,0,0,0,0,0,0,0,0,0,0,0,2,1,1,0,0,1,1,0,0
254,162,35,1,1,180,11514,0,85784.60156,89921.53125,97.39311218,0,0,0,9.79322052,0.08494673669,-1.159961224,-0.007632490247,0.003924330696,0.0004489700077,-28.30852509,-8.121928215,-7.000247955,0,0,0,12.43949223,0.1303390115,32.56999969,0,0,0,0,0,0,0,0,0,0,0,0,0,0,0,2,1,1,0,0,1,1,0,0
254,162,36,1,1,180,11764,0,85787.11719,89921.53125,97.18678284,0,0,0,9.77849102,0.07371528447,-1.145816684,-0.007665746845,0.005204726942,-3.325701982e-05,-28.78748894,-8.440645218,-6.721259117,0,0,0,12.42938709,0.1305260062,32.56999969,0,0,0,0,0,0,0,0,0,0,0,0,0,0,0,2,1,1,0,0,1,1,0,0
254,162,37,1,1,180,12014,0,85784.47656,89971.89062,97.59887695,0,0,0,9.771203041,0.05439719185,-1.170681477,0.009810824879,0.005969638936,-0.0004655984521,-28.77717209,-8.086515427,-6.860704899,0,0,0,12.42938709,0.1305260062,32.58000183,0,0,0,0,0,0,0,0,0,0,0,0,0,0,0,2,1,1,0,0,1,1,0,0
254,162,38,1,1,180,12264,0,85785.00781,89921.53125,97.49692535,0,0,0,9.779682159,0.04451348633,-1.135543227,0.006668036804,0.005321125966,0.001430052682,-28.2202816,-8.228165627,-6.651527405,0,0,0,12.42938709,0.1303390115,32.58000183,0,0,0,0,0,0,0,0,0,0,0,0,0,0,0,2,1,1,0,0,1,1,0,0
254,162,39,1,1,180,12514,0,85785.44531,89891.3125,97.80427551,0,0,0,9.781275749,0.07073470205,-1.119054675,0.00252324366,0.004548704252,0.002385924337,-28.40018845,-8.01568985,-6.930475712,0,0,0,12.42938709,0.1303390115,32.58000183,0,0,0,0,0,0,0,0,0,0,0,0,0,0,0,2,1,1,0,0,1,1,0,0
254,162,40,1,1,180,12764,0,85786.27344,89911.46094,97.39208221,0,0,0,9.772244453,0.07101973891,-1.111869574,0.002361249411,0.004423186183,-0.002294735517,-28.86883163,-8.51146698,-6.860685349,0,0,0,12.42026901,0.1303390115,32.59000015,0,0,0,0,0,0,0,0,0,0,0,0,0,0,0,2,1,1,0,0,1,1,0,0
254,162,41,1,1,180,13014,0,85785.63281,89911.46094,97.49663544,0,0,0,9.764953613,0.07835759223,-1.175743699,-0.002594049089,0.004689243622,-0.001396795386,-27.83638191,-8.086514473,-6.512003422,0,0,0,12.42026901,0.1305260062,32.59000015,0,0,0,0,0,0,0,0,0,0,0,0,0,0,0,2,1,1,0,0,1,1,0,0
254,162,42,1,1,180,13264,0,85784.47656,89901.39844,97.39425659,0,0,0,9.759151459,0.07910635322,-1.163236618,-0.01438366808,0.003758045379,0.001646223362,-28.70606041,-8.157342911,-6.721338272,0,0,0,12.42026901,0.1305260062,32.59000015,0,0,0,0,0,0,0,0,0,0,0,0,0,0,0,2,1,1,0,0,1,1,0,0
254,162,43,1,1,180,13514,0,85785.05469,89901.39844,97.70162201,0,0,0,9.778343201,0.07596154511,-1.191079497,-0.002677191515,0.004007472657,0.001330281491,-28.50901413,-8.157341957,-6.581793785,0,0,0,12.42026901,0.1305260062,32.59000015,0,0,0,0,0,0,0,0,0,0,0,0,0,0,0,2,1,1,0,0,1,1,0,0
254,162,44,1,1,180,13764,0,85786.15625,89911.46094,97.49617004,0,0,0,9.767186165,0.0755123198,-1.15609026,-0.002527535195,0.004905412439,-0.0003325703437,-28.32557678,-8.15734005,-6.860842705,0,0,0,12.41112518,0.1303390115,32.59999847,0,0,0,0,0,0,0,0,0,0,0,0,0,0,0,2,1,1,0,0,1,1,0,0
254,162,45,1,1,180,14014,0,85786.6875,89911.46094,98.21373749,0,0,0,9.77878952,0.05769171938,-1.151921153,0.008330888115,0.006169180851,0.0007981689414,-28.4241581,-8.298995972,-6.512098789,0,0,0,12.41112518,0.1305260062,32.59999847,0,0,0,0,0,0,0,0,0,0,0,0,0,0,0,2,1,1,0,0,1,1,0,0
254,162,46,1,1,180,14264,0,85785.07812,89971.89062,98.1128006,0,0,0,9.770011902,0.02639338188,-1.177828193,0.01433378272,0.005138212815,0.001679480425,-28.61445808,-8.157342911,-6.860859394,0,0,0,12.41112518,0.1303390115,32.59999847,0,0,0,0,0,0,0,0,0,0,0,0,0,0,0,2,1,1,0,0,1,1,0,0
254,162,47,1,1,180,14514,0,85782.82812,89901.39844,98.21546936,0,0,0,9.767780304,0.02983772196,-1.156090379,-0.01077527832,0.004473071545,0.000581998087,-28.6924057,-8.298993111,-6.721261024,0,0,0,12.41112518,0.1305260062,32.61000061,0,0,0,0,0,0,0,0,0,0,0,0,0,0,0,2,1,1,0,0,1,1,0,0
254,162,48,1,1,180,14764,0,85786.13281,89971.89062,98.11167145,0,0,0,9.739214897,0.08764228225,-1.162939072,-0.009045913815,0.004406557884,0.0008314260631,-28.4139061,-8.228167534,-6.581793308,0,0,0,12.40291977,0.1303390115,32.61000061,0,0,0,0,0,0,0,0,0,0,0,0,0,0,0,2,1,1,0,0,1,1,0,0
254,162,49,1,1,180,15014,0,85783.01562,89981.96875,97.90643311,0,0,0,9.774147987,0.07172314078,-1.130530596,-0.00959415175,0.005885488354,0.0003386171011,-28.33588409,-8.228170395,-6.721394062,0,0,0,12.40291977,0.1305260062,32.61000061,0,0,0,0,0,0,0,0,0,0,0,0,0,0,0,2,1,1,0,0,1,1,0,0
254,162,50,1,1,180,15264,0,85783.83594,89971.89062,98.11273956,0,0,0,9.763307571,0.04878383875,-1.134885311,-0.01053926442,0.004342725035,0.0001888140832,-27.95528221,-8.157342911,-6.930650711,0,0,0,12.40291977,0.1303390115,32.61999893,0,0,0,0,0,0,0,0,0,0,0,0,0,0,0,2,1,1,0,0,1,1,0,0
254,162,51,1,1,180,15514,0,85786.70312,89971.89062,98.21373749,0,0,0,9.766532898,0.0577496998,-1.152406096,0.006797309034,0.004892002326,0.001973965904,-28.22702599,-8.369819641,-6.442306519,0,0,0,12.40291977,0.1305260062,32.61999893,0,0,0,0,0,0,0,0,0,0,0,0,0,0,0,2,1,1,0,0,1,1,0,0
254,162,52,1,1,180,15764,0,85785.09375,89981.96875,97.59862518,0,0,0,9.742487907,0.06308281422,-1.169341087,0.0105591109,0.006119294558,0.0008480544202,-28.60070801,-8.440646172,-6.721278667,0,0,0,12.39416122,0.1303390115,32.61999893,0,0,0,0,0,0,0,0,0,0,0,0,0,0,0,2,1,1,0,0,1,1,0,0
254,162,53,1,1,180,16014,0,85787.70312,89971.89062,98.21326447,0,0,0,9.783848763,0.03837362677,-1.134798884,0.005337754264,0.005903123412,0.0007316548144,-28.71301079,-8.01568985,-6.651621819,0,0,0,12.39416122,0.1305260062,32.63000107,0,0,0,0,0,0,0,0,0,0,0,0,0,0,0,2,1,1,0,0,1,1,0,0
254,162,54,1,1,180,16264,0,85785.34375,89981.96875,97.59936523,0,0,0,9.763466835,0.07835759223,-1.128098607,0.003408846678,0.005354383029,-0.0001662853028,-28.91016579,-8.334411621,-6.686536312,0,0,0,12.39416122,0.1303390115,32.63000107,0,0,0,0,0,0,0,0,0,0,0,0,0,0,0,2,1,1,0,0,1,1,0,0
254,162,55,1,1,180,16514,0,85787.04688,89981.96875,98.2144165,0,0,0,9.793667793,0.03777461499,-1.152665496,0.01621280424,0.005986265838,0.0008979399572,-28.47170448,-8.121928215,-6.686480522,0,0,0,12.39416122,0.1303390115,32.63000107,0,0,0,0,0,0,0,0,0,0,0,0,0,0,0,2,1,1,0,0,1,1,0,0
254,162,56,1,1,180,16764,0,85782.64062,89981.96875,98.11187744,0,0,0,9.744273186,0.06937243044,-1.150878906,0.01130739227,0.004705871455,0.0009644540842,-28.22706413,-7.732385635,-6.860822201,0,0,0,12.3865633,0.1303390115,32.63000107,0,0,0,0,0,0,0,0,0,0,0,0,0,0,0,2,1,1,0,0,1,1,0,0
254,162,57,1,1,180,17014,0,85787.26562,89981.96875,98.00894928,0,0,0,9.763762474,0.05649372935,-1.159067869,0.008713345043,0.004406556953,0.002128450433,-28.23728561,-8.08651638,-6.791128159,0,0,0,12.3865633,0.1303390115,32.63999939,0,0,0,0,0,0,0,0,0,0,0,0,0,0,0,2,1,1,0,0,1,1,0,0
254,162,58,1,1,180,17264,0,85787.61719,89911.46094,97.59997559,0,0,0,9.76480484,0.08449748158,-1.166810274,0.01538137812,0.005437525455,0.001330281491,-28.51241493,-8.369820595,-6.860823631,0,0,0,12.3865633,0.130152002,32.63999939,0,0,0,0,0,0,0,0,0,0,0,0,0,0,0,2,1,1,0,0,1,1,0,0
254,162,59,1,1,180,17514,0,85785.89844,89921.53125,97.29127502,0,0,0,9.778938293,0.08225116134,-1.158918858,-0.00562043814,0.005371011794,0.001546452288,-28.9101696,-8.440651894,-6.791166306,0,0,0,12.3865633,0.1305260062,32.63999939,0,0,0,0,0,0,0,0,0,0,0,0,0,0,0,2,1,1,0,0,1,1,0,0
254,162,60,1,1,180,17764,0,85781.69531,89981.96875,97.7039032,0,0,0,9.780495644,0.05415214598,-1.157096267,-0.004660016391,0.004676140845,0.00103197596,-28.60759926,-7.944863319,-7.000326633,0,0,0,12.37862301,0.1303390115,32.63999939,0,0,0,0,0,0,0,0,0,0,0,0,0,0,0,2,1,1,0,0,1,1,0,0
254,162,61,1,1,180,18014,0,85784.64062,89931.60938,97.49733734,0,0,0,9.752010345,0.04661005363,-1.135841012,0.007649119478,0.004506328609,0.002045308007,-28.6246891,-8.298997879,-6.791166306,0,0,0,12.37862301,0.1303390115,32.65000153,0,0,0,0,0,0,0,0,0,0,0,0,0,0,0,2,1,1,0,0,1,1,0,0
254,162,62,1,1,180,18264,0,85784.79688,89921.53125,97.70246887,0,0,0,9.779682159,0.05799122527,-1.13941443,0.009478255175,0.006019523833,0.00261067762,-28.62128448,-8.511478424,-7.139913559,0,0,0,12.37862301,0.1303390115,32.65000153,0,0,0,0,0,0,0,0,0,0,0,0,0,0,0,2,1,1,0,0,1,1,0,0
254,162,63,1,1,180,18514,0,85785.17188,89971.89062,97.80513,0,0,0,9.761829376,0.07416451722,-1.143881083,-0.0117231058,0.005088326056,0.000581998087,-28.42753983,-8.157343864,-6.651623249,0,0,0,12.37862301,0.1303390115,32.65000153,0,0,0,0,0,0,0,0,0,0,0,0,0,0,0,2,1,1,0,0,1,1,0,0
254,162,64,1,1,180,18764,0,85787.89062,90002.11719,97.70289612,0,0,0,9.769417763,0.05349864438,-1.160556793,0.0183745157,0.004955298733,0.001995422412,-28.33583641,-8.157343864,-6.860901833,0,0,0,12.37107944,0.1305260062,32.65999985,0,0,0,0,0,0,0,0,0,0,0,0,0,0,0,2,1,1,0,0,1,1,0,0
254,162,65,1,1,180,19014,0,85785.47656,89992.03906,97.59944153,0,0,0,9.763036728,0.09539312869,-1.146267891,0.005788739771,0.004127903841,0.0002579939028,-28.4378376,-8.01568985,-6.581928253,0,0,0,12.37107944,0.1305260062,32.65999985,0,0,0,0,0,0,0,0,0,0,0,0,0,0,0,2,1,1,0,0,1,1,0,0
254,162,66,1,1,180,19264,0,85783.61719,89931.60938,97.70326996,0,0,0,9.781764984,0.06113603339,-1.15043211,-0.02066924796,0.00470587099,-0.001596337766,-28.80816078,-8.369825363,-6.581870079,0,0,0,12.37107944,0.1303390115,32.66999817,0,0,0,0,0,0,0,0,0,0,0,0,0,0,0,2,1,1,0,0,1,1,0,0
254,162,67,1,1,180,19514,0,85785.64844,89992.03906,97.80552673,0,0,0,9.772541046,0.04406425729,-1.116485357,0.01298687421,0.004938669968,0.002394506708,-28.3290062,-8.228167534,-6.651602745,0,0,0,12.37107944,0.1303390115,32.66999817,0,0,0,0,0,0,0,0,0,0,0,0,0,0,0,2,1,1,0,0,1,1,0,0
254,162,68,1,1,180,19764,0,85785.08594,89992.03906,97.70293427,0,0,0,9.758256912,0.07401476055,-1.170085907,0.02223232761,0.005437525455,0.003491988871,-28.52611923,-8.228171349,-6.721395493,0,0,0,12.36319065,0.1305260062,32.66999817,0,0,0,0,0,0,0,0,0,0,0,0,0,0,0,2,1,1,0,0,1,1,0,0
254,162,69,1,1,180,20014,0,85783.11719,89992.03906,97.80576324,0,0,0,9.793219566,0.05619419366,-1.125567555,-0.01672829129,0.005371010862,0.0004988556029,-28.71297646,-8.298996925,-6.791129112,0,0,0,12.36319065,0.1303390115,32.66999817,0,0,0,0,0,0,0,0,0,0,0,0,0,0,0,2,1,1,0,0,1,1,0,0
254,162,70,1,1,180,20264,0,85780.70312,89981.96875,97.70265198,0,0,0,9.76554966,0.08584525436,-1.185719371,-0.01845765673,0.004539585672,8.314260049e-05,-28.62472343,-8.157343864,-6.860920429,0,0,0,12.36319065,0.130152002,32.66999817,0,0,0,0,0,0,0,0,0,0,0,0,0,0,0,2,1,1,0,0,1,1,0,0
254,162,71,1,1,180,20514,0,85779.94531,90002.11719,97.8059845,0,0,0,9.77120018,0.0720680058,-1.129140735,0.01094156597,0.004789013881,0.002494277433,-28.14891243,-8.157341957,-6.651662827,0,0,0,12.36319065,0.1303390115,32.68000031,0,0,0,0,0,0,0,0,0,0,0,0,0,0,0,2,1,1,0,0,1,1,0,0
254,162,72,1,1,180,20764,0,85785.17969,90002.11719,97.80480957,0,0,0,9.760491371,0.1011199951,-1.148347855,0.0007316550473,0.004157130141,0.001862394274,-28.23388481,-8.369822502,-6.791108608,0,0,0,12.35521412,0.130152002,32.68000031,0,0,0,0,0,0,0,0,0,0,0,0,0,0,0,2,1,1,0,0,1,1,0,0
254,162,73,1,1,180,21014,0,85781.39844,89951.75,97.70365906,0,0,0,9.758997917,0.0733204633,-1.14063704,-0.007659195922,0.004434272181,0.0006772342022,-28.89983368,-8.157342911,-6.860861301,0,0,0,12.35521412,0.1303390115,32.68000031,0,0,0,0,0,0,0,0,0,0,0,0,0,0,0,2,1,1,0,0,1,1,0,0
254,162,74,1,1,180,21264,0,85781.99219,89941.67188,97.80628967,0,0,0,9.750968933,0.07371525466,-1.121845126,-0.002028679242,0.005038441624,0.00206193584,-28.33927155,-8.228171349,-6.791166782,0,0,0,12.35521412,0.1305260062,32.68999863,0,0,0,0,0,0,0,0,0,0,0,0,0,0,0,2,1,1,0,0,1,1,0,0
254,162,75,1,1,180,21514,0,85785.28906,89931.60938,97.80602264,0,0,0,9.759895325,0.06907295436,-1.1474545,-0.002461020602,0.00450632954,0.001247138949,-28.71643448,-8.298997879,-6.860899448,0,0,0,12.35521412,0.1303390115,32.68999863,0,0,0,0,0,0,0,0,0,0,0,0,0,0,0,2,1,1,0,0,1,1,0,0
254,162,76,1,1,180,21764,0,85781.76562,89971.89062,97.80528259,0,0,0,9.76138401,0.06937243044,-1.134203076,0.003309075488,0.003874444868,0.001945536584,-28.24070549,-8.01568985,-6.791148186,0,0,0,12.34811878,0.1305260062,32.68999863,0,0,0,0,0,0,0,0,0,0,0,0,0,0,0,2,1,1,0,0,1,1,0,0
254,162,77,1,1,180,22014,0,85786.42969,90002.11719,97.80422211,0,0,0,9.766738892,0.05679320544,-1.127949595,-0.001696109073,0.005237984005,0.00197879388,-28.15921021,-8.086515427,-6.930733681,0,0,0,12.34811878,0.1305260062,32.68999863,0,0,0,0,0,0,0,0,0,0,0,0,0,0,0,2,1,1,0,0,1,1,0,0
254,162,78,1,1,180,22264,0,85784.07812,90002.11719,97.70279694,0,0,0,9.781170845,0.08943928778,-1.133607626,-0.001928908168,0.00332570402,0.001080853748,-28.55009651,-8.228173256,-6.651774883,0,0,0,12.34811878,0.1305260062,32.70000076,0,0,0,0,0,0,0,0,0,0,0,0,0,0,0,2,1,1,0,0,1,1,0,0
254,162,79,1,1,180,22514,0,85785.33594,89992.03906,97.80401611,0,0,0,9.745464325,0.05604444072,-1.148496628,0.004223643802,0.007067120634,0.001330281491,-28.55031967,-8.299004555,-7.070300102,0,0,0,12.34811878,0.130152002,32.70000076,0,0,0,0,0,0,0,0,0,0,0,0,0,0,0,2,1,1,0,0,1,1,0,0
254,162,80,1,1,180,22764,0,85785.0625,89941.67188,97.80451965,0,0,0,9.773284912,0.0762610808,-1.149240971,0.005753467791,0.004805641714,0.001380167087,-28.25436211,-8.157344818,-6.581964493,0,0,0,12.34137821,0.1305260062,32.70000076,0,0,0,0,0,0,0,0,0,0,0,0,0,0,0,2,1,1,0,0,1,1,0,0
254,162,81,1,1,180,23014,0,85784.38281,89941.67188,97.90773773,0,0,0,9.746058464,0.06263358891,-1.142243385,-0.006102666724,0.006036152132,0.000964454026,-28.34952736,-8.01568985,-6.651717186,0,0,0,12.34137821,0.1303390115,32.70000076,0,0,0,0,0,0,0,0,0,0,0,0,0,0,0,2,1,1,0,0,1,1,0,0
254,162,82,1,1,180,23264,0,85785.32031,89931.60938,97.80458832,0,0,0,9.752159119,0.07596154511,-1.152814507,0.0003325703437,0.00595300924,0.001313653076,-27.97227287,-8.228173256,-6.581983566,0,0,0,12.34137821,0.1303390115,32.70999908,0,0,0,0,0,0,0,0,0,0,0,0,0,0,0,2,1,1,0,0,1,1,0,0
254,162,83,1,1,180,23514,0,85782.21875,90012.1875,97.90860748,0,0,0,9.757662773,0.09438112378,-1.137180805,0.005121583119,0.005504038651,0.002194964327,-28.24753571,-8.369825363,-6.651679516,0,0,0,12.34137821,0.1305260062,32.70999908,0,0,0,0,0,0,0,0,0,0,0,0,0,0,0,2,1,1,0,0,1,1,0,0
254,162,84,1,1,180,23764,0,85786.30469,89941.67188,97.39340973,0,0,0,9.767036438,0.04002093524,-1.148645401,0.005670324899,0.005104955286,0.0009311969625,-28.44125748,-8.440653801,-7.070218563,0,0,0,12.33521557,0.1305260062,32.70999908,0,0,0,0,0,0,0,0,0,0,0,0,0,0,0,2,1,1,0,0,1,1,0,0
254,162,85,1,1,180,24014,0,85784.46875,90012.1875,98.01002502,0,0,0,9.753645897,0.0594887808,-1.151623368,0.01260441635,0.00578672532,0.002660563216,-28.6212883,-8.228171349,-6.860899448,0,0,0,12.33521557,0.1305260062,32.70999908,0,0,0,0,0,0,0,0,0,0,0,0,0,0,0,2,1,1,0,0,1,1,0,0
254,162,86,1,1,180,24264,0,85788.20312,90002.11719,97.80339813,0,0,0,9.754538536,0.07521281391,-1.127800822,0.009029285982,0.006169180386,0.002693820046,-28.44128036,-8.228172302,-6.791205883,0,0,0,12.33521557,0.1303390115,32.72000122,0,0,0,0,0,0,0,0,0,0,0,0,0,0,0,2,1,1,0,0,1,1,0,0
254,162,87,1,1,180,24514,0,85784.04688,90002.11719,97.90790558,0,0,0,9.771907806,0.05960468203,-1.118747234,-0.002677728189,0.005544270389,0.0001201544947,-28.63159561,-8.228171349,-6.651698589,0,0,0,12.33521557,0.1305260062,32.72000122,0,0,0,0,0,0,0,0,0,0,0,0,0,0,0,2,1,1,0,0,1,1,0,0
254,162,88,1,1,180,24764,0,85785.44531,89981.96875,97.90598297,0,0,0,9.770904541,0.04526227713,-1.144625425,0.002959876321,0.005903124809,0.001163996174,-28.63152885,-8.228171349,-6.72145319,0,0,0,12.32984257,0.1303390115,32.72000122,0,0,0,0,0,0,0,0,0,0,0,0,0,0,0,2,1,1,0,0,1,1,0,0
254,162,89,1,1,180,25014,0,85785.83594,90012.1875,98.00961304,0,0,0,9.763911247,0.09647766501,-1.134947658,0.002394506708,0.006418608129,0.001280395896,-28.06740379,-8.157344818,-6.791247845,0,0,0,12.32984257,0.1303390115,32.72999954,0,0,0,0,0,0,0,0,0,0,0,0,0,0,0,2,1,1,0,0,1,1,0,0
254,162,90,1,1,180,25264,0,85786.98438,90012.1875,97.80420685,0,0,0,9.783996582,0.08449745178,-1.126461029,-0.007050491869,0.005670324899,0.0007316547562,-28.26117706,-8.157344818,-6.512248993,0,0,0,12.32984257,0.1303390115,32.72999954,0,0,0,0,0,0,0,0,0,0,0,0,0,0,0,2,1,1,0,0,1,1,0,0
254,162,91,1,1,180,25514,0,85786.34375,90012.1875,97.80503082,0,0,0,9.758108139,0.05724249408,-1.151474237,0.009245456196,0.005969638005,0.0008979401318,-27.97227287,-8.086518288,-6.791244507,0,0,0,12.32984257,0.1303390115,32.72999954,0,0,0,0,0,0,0,0,0,0,0,0,0,0,0,2,1,1,0,0,1,1,0,0
254,162,92,1,1,180,25764,0,85787.4375,90022.25781,98.00906372,0,0,0,9.774475098,0.08674374223,-1.133905172,0.00427352963,0.005171469878,0.001745994319,-28.82534027,-8.369827271,-6.651717186,0,0,0,12.3247385,0.1303390115,32.72999954,0,0,0,0,0,0,0,0,0,0,0,0,0,0,0,2,1,1,0,0,1,1,0,0
254,162,93,1,1,180,26014,0,85784.8125,90002.11719,97.907547,0,0,0,9.744124413,0.08285020292,-1.159067869,0.0004655984521,0.006368723698,0.0004489699786,-28.26463509,-8.157345772,-6.721530437,0,0,0,12.3247385,0.1303390115,32.72999954,0,0,0,0,0,0,0,0,0,0,0,0,0,0,0,2,1,1,0,0,1,1,0,0
254,162,94,1,1,180,26264,0,85785.83594,90012.1875,97.90607452,0,0,0,9.778343201,0.06473009288,-1.171425939,0.01260441728,0.005553924944,0.00172936602,-28.78295326,-8.015690804,-7.209776402,0,0,0,12.3247385,0.1305260062,32.74000168,0,0,0,0,0,0,0,0,0,0,0,0,0,0,0,2,1,1,0,0,1,1,0,0
254,162,95,1,1,180,26514,0,85789.99219,90012.1875,98.01010895,0,0,0,9.761383057,0.05963853374,-1.139712095,0.007266663015,0.005853238516,0.0009644539678,-29.02602959,-8.228173256,-6.721529484,0,0,0,12.3247385,0.1305260062,32.74000168,0,0,0,0,0,0,0,0,0,0,0,0,0,0,0,2,1,1,0,0,1,1,0,0
254,162,96,1,1,180,26764,0,85782.67188,90012.1875,97.90853882,0,0,0,9.776408195,0.09138610214,-1.138371944,0.007449576631,0.005670325365,0.002012050711,-28.54671478,-8.369828224,-6.4424963,0,0,0,12.32037067,0.1303390115,32.74000168,0,0,0,0,0,0,0,0,0,0,0,0,0,0,0,2,1,1,0,0,1,1,0,0
254,162,97,1,1,180,27014,0,85785.82031,90022.25781,97.90635681,0,0,0,9.772992134,0.04413225874,-1.153920054,0.002708937041,0.004531018436,0.001306094578,-27.9790802,-8.228173256,-6.791282654,0,0,0,12.32037067,0.1305260062,32.75,0,0,0,0,0,0,0,0,0,0,0,0,0,0,0,2,1,1,0,0,1,1,0,0
254,162,98,1,1,180,27264,0,85779.6875,90012.1875,98.01248169,0,0,0,9.748714447,0.05604930222,-1.14011085,-0.005647259299,0.004377054982,0.001682162518,-28.82877541,-8.369828224,-6.651735783,0,0,0,12.32037067,0.1303390115,32.74000168,0,0,0,0,0,0,0,0,0,0,0,0,0,0,0,2,1,1,0,0,1,1,0,0
254,162,99,1,1,180,27514,0,85786.82812,90012.1875,97.90365601,0,0,0,9.782811165,0.0626963675,-1.150562048,-0.02286367677,0.004085252061,0.00080675137,-28.46867371,-8.228175163,-6.861113548,0,0,0,12.32037067,0.1303390115,32.75,0,0,0,0,0,0,0,0,0,0,0,0,0,0,0,2,1,1,0,0,1,1,0,0
254,162,100,1,1,180,27764,0,85788.80469,89951.75,98.52135468,0,0,0,9.772688866,0.04316570982,-1.188399553,-0.004539585672,0.004622728564,0.001197253237,-28.3631916,-8.086519241,-6.582038879,0,0,0,12.31573963,0.1305260062,32.75,0,0,0,0,0,0,0,0,0,0,0,0,0,0,0,2,1,1,0,0,1,1,0,0
254,162,101,1,1,180,28014,0,85785,90022.25781,98.31650543,0,0,0,9.763169289,0.09198511392,-1.123780608,0.01047596708,0.00618580915,0.002028679475,-28.55013466,-8.086518288,-6.72152853,0,0,0,12.31573963,0.1305260062,32.75,0,0,0,0,0,0,0,0,0,0,0,0,0,0,0,2,1,1,0,0,1,1,0,0
254,162,102,1,1,180,28264,0,85784.32812,90012.1875,98.62158203,0,0,0,9.765149117,0.1113901213,-1.121359825,0.009886996821,0.006454010028,0.0007895863964,-28.65562057,-7.803205013,-6.582078934,0,0,0,12.31573963,0.1305260062,32.75,0,0,0,0,0,0,0,0,0,0,0,0,0,0,0,2,1,1,0,0,1,1,0,0
254,162,103,1,1,180,28514,0,85785.625,90012.1875,98.21380615,0,0,0,9.772392273,0.0587400198,-1.176339149,0.006751178764,0.004373300355,0.003608388593,-27.9722538,-8.157344818,-6.721489906,0,0,0,12.31573963,0.1305260062,32.75999832,0,0,0,0,0,0,0,0,0,0,0,0,0,0,0,2,1,1,0,0,1,1,0,0
254,162,104,1,1,180,28764,0,85787.625,90022.25781,98.21377563,0,0,0,9.735347748,0.04810757935,-1.131671786,0.005903124344,0.003841186874,0.002311364049,-28.54674911,-8.299001694,-6.72151041,0,0,0,12.31134033,0.1305260062,32.75999832,0,0,0,0,0,0,0,0,0,0,0,0,0,0,0,2,1,1,0,0,1,1,0,0
254,162,105,1,1,180,29014,0,85786.22656,89941.67188,98.72336578,0,0,0,9.790840149,0.09468065947,-1.167256951,0.003109532874,0.005570553709,0.001529823756,-28.65218163,-8.228173256,-6.791323662,0,0,0,12.31134033,0.1305260062,32.75999832,0,0,0,0,0,0,0,0,0,0,0,0,0,0,0,2,1,1,0,0,1,1,0,0
254,162,106,1,1,180,29264,0,85786.3125,90022.25781,98.11139679,0,0,0,9.775666237,0.07251726836,-1.187208056,0.01282058749,0.004905412905,0.0003491989046,-28.46178627,-8.157346725,-6.44255209,0,0,0,12.31134033,0.1305260062,32.75999832,0,0,0,0,0,0,0,0,0,0,0,0,0,0,0,2,1,1,0,0,1,1,0,0
254,162,107,1,1,180,29514,0,85788.875,90032.33594,98.00859833,0,0,0,9.774178505,0.04256670177,-1.133160949,-0.002261477988,0.005221354775,0.0006485121557,-28.84257889,-8.157344818,-6.582057953,0,0,0,12.31134033,0.1303390115,32.77000046,0,0,0,0,0,0,0,0,0,0,0,0,0,0,0,2,1,1,0,0,1,1,0,0
254,162,108,1,1,180,29764,0,85783.46875,89951.75,98.72466278,0,0,0,9.776453972,0.08101686835,-1.155363679,0.01088412106,0.005208254792,4.837391316e-05,-28.84947586,-8.228175163,-7.000623703,0,0,0,12.30716133,0.1305260062,32.77000046,0,0,0,0,0,0,0,0,0,0,0,0,0,0,0,2,1,1,0,0,1,1,0,0
254,162,109,1,1,180,30014,0,85785.90625,89951.75,98.72373962,0,0,0,9.764954567,0.0587400198,-1.144178748,-0.01142379176,0.004672613461,0.002244850388,-28.74391365,-8.299002647,-6.58204031,0,0,0,12.30716133,0.1305260062,32.77000046,0,0,0,0,0,0,0,0,0,0,0,0,0,0,0,2,1,1,0,0,1,1,0,0
254,162,110,1,1,180,30264,0,85783.91406,90022.25781,98.72444916,0,0,0,9.756090164,0.07908222824,-1.132887363,0.04042339325,0.007106278092,0.00283221202,-28.26799011,-7.944861889,-6.582041264,0,0,0,12.30716133,0.1303390115,32.77000046,0,0,0,0,0,0,0,0,0,0,0,0,0,0,0,2,1,1,0,0,1,1,0,0
254,162,111,1,1,180,30514,0,85783.01562,90012.1875,98.72383881,0,0,0,9.784891129,0.04735878482,-1.15787673,-0.005819982383,0.003891072934,0.0002993133385,-28.65905952,-8.157346725,-6.651851654,0,0,0,12.30716133,0.1303390115,32.77999878,0,0,0,0,0,0,0,0,0,0,0,0,0,0,0,2,1,1,0,0,1,1,0,0
254,162,112,1,1,180,30764,0,85785.71875,89961.82031,98.00913239,0,0,0,9.770309448,0.07985511422,-1.144625425,0.005803351756,0.004190386273,0.0008979400736,-28.75770187,-8.086518288,-7.00064373,0,0,0,12.30319118,0.1303390115,32.77999878,0,0,0,0,0,0,0,0,0,0,0,0,0,0,0,2,1,1,0,0,1,1,0,0
254,162,113,1,1,180,31014,0,85786.20312,89961.82031,97.9068985,0,0,0,9.767483711,0.08000490069,-1.13509655,0.009045914747,0.004423186183,0.0004323414469,-28.93779945,-8.086517334,-6.861075401,0,0,0,12.30319118,0.1303390115,32.77999878,0,0,0,0,0,0,0,0,0,0,0,0,0,0,0,2,1,1,0,0,1,1,0,0
254,162,114,1,1,180,31264,0,85785.35938,89971.89062,98.72377777,0,0,0,9.790543556,0.0629330948,-1.123780847,-0.007898546755,0.004506329075,-0.0001163995912,-28.52309799,-8.334417343,-7.105294228,0,0,0,12.30319118,0.1305260062,32.77999878,0,0,0,0,0,0,0,0,0,0,0,0,0,0,0,2,1,1,0,0,1,1,0,0
254,162,115,1,1,180,31514,0,85785.88281,89951.75,98.11261749,0,0,0,9.76495266,0.03897266462,-1.133309841,-0.007499461528,0.005021811929,0.001097482163,-28.56390953,-8.299003601,-6.442587852,0,0,0,12.30319118,0.1303390115,32.77999878,0,0,0,0,0,0,0,0,0,0,0,0,0,0,0,2,1,1,0,0,1,1,0,0
254,162,116,1,1,180,31764,0,85784.34375,90022.25781,98.72346497,0,0,0,9.749332428,0.03448002413,-1.136585593,-0.01621280424,0.005104955286,0.0019455367,-28.67965126,-8.228177071,-6.582211494,0,0,0,12.2994194,0.1305260062,32.77999878,0,0,0,0,0,0,0,0,0,0,0,0,0,0,0,2,1,1,0,0,1,1,0,0
254,162,117,1,1,180,32014,0,85787.57812,90022.25781,98.82418823,0,0,0,9.753945351,0.07641083747,-1.161897063,0.0005653696135,0.005537295714,0.0006651408039,-28.54675293,-8.157345772,-6.721511364,44.00041199,0.3677569032,10274.57227,12.2994194,0.1303390115,32.79000092,0,0,0,0,0,0,0,0,0,0,0,0,0,0,0,2,1,1,0,0,1,1,0,0
254,162,118,1,1,180,32264,0,85786.29688,90032.33594,98.82534027,0,0,0,9.785399437,0.07767691463,-1.151465297,0.007497949991,0.00522437878,0.002338070422,-28.76114082,-8.157347679,-6.721644878,44.38725281,0.6865490079,10418.85938,12.2994194,0.1303390115,32.79000092,0,0,0,0,0,0,0,0,0,0,0,0,0,0,0,2,1,1,0,0,1,1,0,0
254,162,119,1,1,180,32514,0,85786.49219,90032.33594,98.01029968,0,0,0,9.776110649,0.07641080767,-1.12884295,0.006967348978,0.005188097712,0.0009145686054,-28.38033485,-8.157348633,-6.791398525,43.26117325,-0.2265402973,9999.099609,12.2994194,0.1303390115,32.79000092,0,0,0,0,0,0,0,0,0,0,0,0,0,0,0,2,1,1,0,0,1,1,0,0
254,162,120,1,1,180,32764,0,85786.46094,90032.33594,98.92615509,0,0,0,9.777153015,0.09512989223,-1.126460791,0.003658274421,0.004389929119,0.001130739227,-28.28164101,-8.511489868,-7.00064373,43.28266144,-0.2090360969,10007.10059,12.29511356,0.1303390115,32.79999924,0,0,0,0,0,0,0,0,0,0,0,0,0,0,0,2,1,1,0,0,1,1,0,0
254,162,121,1,1,180,33014,0,85785.01562,90022.25781,98.11009216,0,0,0,9.773857117,0.05124782026,-1.13442874,0.004289150704,0.004482645076,0.0010642251,-28.47905159,-8.228178978,-6.791419506,44.00515747,0.3733003139,10276.34082,12.29511356,0.1303390115,32.79999924,0,0,0,0,0,0,0,0,0,0,0,0,0,0,0,2,1,1,0,0,1,1,0,0
254,162,122,1,1,180,33264,0,85787.35156,90022.25781,98.82430267,0,0,0,9.785335541,0.06263355911,-1.155941248,0.004888785072,0.005603809841,-0.0002826848067,-28.46518326,-8.299003601,-6.651833057,43.63092422,0.07025270164,10136.83496,12.29511356,0.1303390115,32.79999924,0,0,0,0,0,0,0,0,0,0,0,0,0,0,0,2,1,1,0,0,1,1,0,0
254,162,123,1,1,180,33514,0,85787.54688,90032.33594,98.11100769,0,0,0,9.749793053,0.07212595642,-1.148256421,0.008582461625,0.005115147214,0.002059790306,-28.47208023,-8.228176117,-6.651870728,44.00753021,0.3760725856,10277.22559,12.29511356,0.1303390115,32.79999924,0,0,0,0,0,0,0,0,0,0,0,0,0,0,0,2,1,1,0,0,1,1,0,0
254,162,124,1,1,180,33764,0,85784.11719,90022.25781,98.72296143,0,0,0,9.759448051,0.06458034366,-1.146710277,0.01617954671,0.005337754264,0.001396795618,-28.18991852,-8.086518288,-6.721644878,42.48064423,-0.8350490928,9708.77832,12.29102325,0.1303390115,32.79999924,0,0,0,0,0,0,0,0,0,0,0,0,0,0,0,2,1,1,0,0,1,1,0,0
254,162,125,1,1,180,34014,0,85783.25,89961.82031,98.82622528,0,0,0,9.796940804,0.07221776247,-1.145667672,-0.008031574078,0.00347536034,0.0006152550341,-28.85634804,-8.228176117,-6.512379646,42.56476974,-0.7697532177,9740.037109,12.29102325,0.1303390115,32.79999924,0,0,0,0,0,0,0,0,0,0,0,0,0,0,0,2,1,1,0,0,1,1,0,0
254,162,126,1,1,180,34264,0,85785.52344,90042.40625,98.82349396,0,0,0,9.768375397,0.08913981169,-1.138372183,-0.00523798354,0.004955298733,0.001729366137,-28.48923111,-8.440665245,-6.51245594,43.20224762,-0.2705447078,9977.160156,12.29102325,0.1303390115,32.81000137,0,0,0,0,0,0,0,0,0,0,0,0,0,0,0,2,1,1,0,0,1,1,0,0
254,162,127,1,1,180,34514,0,85789.42188,90032.33594,98.92534637,0,0,0,9.794558525,0.03178441897,-1.151921034,0.0273871664,0.006817692891,0.0004988554865,-28.29534912,-8.228177071,-6.512437344,43.20365524,-0.2689901888,9977.683594,12.29102325,0.1303390115,32.81000137,0,0,0,0,0,0,0,0,0,0,0,0,0,0,0,2,1,1,0,0,1,1,0,0
254,162,128,1,1,180,34764,0,85783.52344,90032.33594,98.92751312,0,0,0,9.76807785,0.03567810729,-1.133011937,-0.002494277665,0.00523798354,0.002278106986,-28.77832222,-8.228178024,-6.651986122,43.22890091,-0.2485340983,9987.084961,12.28713703,0.1305260062,32.81000137,0,0,0,0,0,0,0,0,0,0,0,0,0,0,0,2,1,1,0,0,1,1,0,0
254,162,129,1,1,180,35014,0,85786.4375,90042.40625,98.31583405,0,0,0,9.793518066,0.04735878482,-1.126162887,-0.004439814482,0.004373300821,0.002427763771,-28.29195786,-8.01568985,-6.930948257,43.23011017,-0.247199893,9987.533203,12.28713703,0.1305260062,32.81999969,0,0,0,0,0,0,0,0,0,0,0,0,0,0,0,2,1,1,0,0,1,1,0,0
254,162,130,1,1,180,35264,0,85784.98438,90032.33594,98.11164856,0,0,0,9.782510757,0.05140210688,-1.104573965,-0.004240272101,0.004955298733,9.977100854e-05,-28.2919426,-8.3698349,-6.930948257,43.2313118,-0.2458655983,9987.982422,12.28713703,0.130152002,32.81999969,0,0,0,0,0,0,0,0,0,0,0,0,0,0,0,2,1,1,0,0,1,1,0,0
254,162,131,1,1,180,35514,0,85788.45312,90042.40625,98.92683411,0,0,0,9.781913757,0.06458034366,-1.14060533,0.0006651403382,0.005304497667,-0.0009311969043,-28.11509895,-8.369837761,-6.861271381,43.63117981,0.0741764009,10136.92969,12.28713703,0.1305260062,32.81999969,0,0,0,0,0,0,0,0,0,0,0,0,0,0,0,2,1,1,0,0,1,1,0,0
254,162,132,1,1,180,35764,0,85785.23438,90042.40625,98.92672729,0,0,0,9.767631531,0.06398136169,-1.127056479,0.00119725347,0.003857816104,0.001247138716,-28.86669922,-8.582324982,-7.140233517,43.21007919,-0.2618823946,9980.077148,12.28320408,0.1303390115,32.81999969,0,0,0,0,0,0,0,0,0,0,0,0,0,0,0,2,1,1,0,0,1,1,0,0
254,162,133,1,1,180,36014,0,85786.05469,90032.33594,98.72219086,0,0,0,9.758110046,0.08000490069,-1.188994884,0.003591760062,0.004423186183,0.001330281259,-28.66593361,-8.121932983,-6.89603138,43.63357162,0.07689829916,10137.82129,12.28320408,0.1303390115,32.81999969,0,0,0,0,0,0,0,0,0,0,0,0,0,0,0,2,1,1,0,0,1,1,0,0
254,162,134,1,1,180,36264,0,85785.11719,90042.40625,98.92678833,0,0,0,9.759314537,0.05991388112,-1.188216925,-0.001956800697,0.004205406178,0.002334429417,-28.52825165,-8.228177071,-6.268266678,43.25880814,-0.2224608958,9998.21875,12.28320408,0.1303390115,32.81999969,0,0,0,0,0,0,0,0,0,0,0,0,0,0,0,2,1,1,0,0,1,1,0,0
254,162,135,1,1,180,36514,0,85788.35156,90022.25781,98.82295227,0,0,0,9.789054871,0.04915578663,-1.122291684,-0.00670129247,0.004922042135,0.002145078732,-28.7749157,-8.228178024,-7.070499897,43.23733521,-0.239192903,9990.223633,12.28320408,0.1305260062,32.83000183,0,0,0,0,0,0,0,0,0,0,0,0,0,0,0,2,1,1,0,0,1,1,0,0
254,162,136,1,1,180,36764,0,85785.32031,90032.33594,98.72225952,0,0,0,9.787270546,0.06562864035,-1.130332232,-0.008513801731,0.005387640093,0.001230510301,-28.87010956,-8.299006462,-6.651967049,44.0239296,0.3952575028,10283.34082,12.28043175,0.1303390115,32.83000183,0,0,0,0,0,0,0,0,0,0,0,0,0,0,0,2,1,1,0,0,1,1,0,0
254,162,137,1,1,180,37014,0,85789.19531,90032.33594,98.21256256,0,0,0,9.740852356,0.08389844,-1.16353476,0.01045933738,0.004306786228,0.001612966065,-28.00966835,-8.157348633,-6.930968761,43.24014664,-0.2360782027,9991.269531,12.28043175,0.1303390115,32.83000183,0,0,0,0,0,0,0,0,0,0,0,0,0,0,0,2,1,1,0,0,1,1,0,0
254,162,138,1,1,180,37264,0,85787.02344,90042.40625,98.92644501,0,0,0,9.784146309,0.09917321056,-1.154303312,0.003625016892,0.004705870524,0.002510906197,-28.10489082,-8.157347679,-6.861212254,43.24135208,-0.2347431928,9991.71875,12.28043175,0.1305260062,32.83000183,0,0,0,0,0,0,0,0,0,0,0,0,0,0,0,2,1,1,0,0,1,1,0,0
254,162,139,1,1,180,37514,0,85784.75,90032.33594,98.92488098,0,0,0,9.771837234,0.05110263079,-1.162438154,0.00909428671,0.004402022809,0.001531839487,-28.29534912,-8.157348633,-6.651947498,43.24235153,-0.2336305976,9992.091797,12.28043175,0.1303390115,32.84000015,0,0,0,0,0,0,0,0,0,0,0,0,0,0,0,2,1,1,0,0,1,1,0,0
254,162,140,1,1,180,37764,0,85790.41406,90042.40625,98.92577362,0,0,0,9.773137093,0.05993803963,-1.148347855,0.006701293401,0.006418608129,0.001114110695,-28.48582077,-8.440665245,-6.791459084,43.63098526,0.07779990137,10136.85742,12.2777977,0.1305260062,32.84000015,0,0,0,0,0,0,0,0,0,0,0,0,0,0,0,2,1,1,0,0,1,1,0,0
254,162,141,1,1,180,38014,0,85786.55469,90042.40625,99.02750397,0,0,0,9.753944397,0.07371525466,-1.160407901,0.00586986728,0.004439814016,0.0010642251,-28.49268913,-8.228177071,-6.79149437,33.41700363,-13.3370924,6448.170898,12.2777977,0.1305260062,32.84000015,0,0,0,0,0,0,0,0,0,0,0,0,0,0,0,2,1,1,0,0,1,1,0,0
254,162,142,1,1,180,38264,0,85786.95312,90042.40625,98.9256897,0,0,0,9.787716866,0.0552957058,-1.154303432,0.001696108957,0.004722499289,0.002860105131,-28.30901909,-8.228177071,-6.861289978,33.84830856,-12.88229275,6596.157227,12.2777977,0.1305260062,32.84000015,0,0,0,0,0,0,0,0,0,0,0,0,0,0,0,2,1,1,0,0,1,1,0,0
254,162,143,1,1,180,38514,0,85786.80469,90042.40625,98.92479706,0,0,0,9.764209747,0.04406422749,-1.106360674,-0.0006152552669,0.004024100956,0.001862394158,-28.68312263,-8.086518288,-6.721741199,33.46932983,-13.13203812,6466.074219,12.2777977,0.1303390115,32.84000015,0,0,0,0,0,0,0,0,0,0,0,0,0,0,0,2,1,1,0,0,1,1,0,0
254,162,144,1,1,180,38764,0,85787.77344,90042.40625,98.82410431,0,0,0,9.790394783,0.04256673157,-1.133458853,0.003491988871,0.004922042135,0.001646223362,-28.78867149,-8.228178978,-6.72179842,33.2611084,-13.34708595,6394.916992,12.27409077,0.1303390115,32.84000015,0,0,0,0,0,0,0,0,0,0,0,0,0,0,0,2,1,1,0,0,1,1,0,0
254,162,145,1,1,180,39014,0,85790.57031,90042.40625,98.21357727,0,0,0,9.754092216,0.06707627326,-1.197811007,-0.005159880035,0.004095654935,0.000935228134,-28.49265671,-8.440667152,-6.651984215,34.01703644,-12.86174965,6654.305176,12.27409077,0.1303390115,32.84000015,0,0,0,0,0,0,0,0,0,0,0,0,0,0,0,2,1,1,0,0,1,1,0,0
254,162,146,1,1,180,39264,0,85788.0625,90052.46875,98.92539978,0,0,0,9.772983551,0.08511098474,-1.137344241,-0.001424688497,0.005029321648,0.000600772386,-28.20009804,-8.369835854,-6.512437344,33.25257111,-13.34648991,6392.003906,12.27409077,0.1303390115,32.84999847,0,0,0,0,0,0,0,0,0,0,0,0,0,0,0,2,1,1,0,0,1,1,0,0
254,162,147,1,1,180,39514,0,85788.20312,90042.40625,98.31599426,0,0,0,9.775746346,0.07336260378,-1.16746819,0.005080817267,0.005458444823,0.001476183184,-28.20012283,-8.01568985,-6.791458607,33.41873169,-13.33306122,6448.762207,12.27409077,0.1303390115,32.84999847,0,0,0,0,0,0,0,0,0,0,0,0,0,0,0,2,1,1,0,0,1,1,0,0
254,162,148,1,1,180,39764,0,85788.99219,90032.33594,98.31494141,0,0,0,9.779831886,0.05289966613,-1.135543227,0.002710447647,0.005271239672,0.001163996407,-28.00971603,-8.228176117,-6.791458607,33.26227951,-13.34449005,6395.315918,12.27105141,0.1303390115,32.84999847,0,0,0,0,0,0,0,0,0,0,0,0,0,0,0,2,1,1,0,0,1,1,0,0
254,162,149,1,1,180,40014,0,85788.48438,90042.40625,98.21289062,0,0,0,9.789649963,0.06682663411,-1.114698648,0.00533775473,0.005354382563,0.001197253354,-28.68655205,-8.299008369,-6.721759796,33.63308716,-13.10735321,6522.192871,12.27105141,0.1305260062,32.84999847,0,0,0,0,0,0,0,0,0,0,0,0,0,0,0,2,1,1,0,0,1,1,0,0
254,162,150,1,1,180,40264,0,85787.11719,90032.33594,98.11121368,0,0,0,9.760638237,0.0552957058,-1.165321469,0.001978793647,0.004905412905,0.001280395896,-28.58789635,-8.299007416,-6.721741199,33.63338852,-13.10669041,6522.295898,12.27105141,0.1303390115,32.86000061,0,0,0,0,0,0,0,0,0,0,0,0,0,0,0,2,1,1,0,0,1,1,0,0
254,162,151,1,1,180,40514,0,85787.16406,90042.40625,98.31507874,0,0,0,9.765252113,0.05245034769,-1.143732309,0.003758045146,0.004988556262,0.0006318837404,-28.20016098,-8.299006462,-6.51243639,33.62786102,-13.11216354,6520.399902,12.27105141,0.1305260062,32.86000061,0,0,0,0,0,0,0,0,0,0,0,0,0,0,0,2,1,1,0,0,1,1,0,0
254,162,152,1,1,180,40764,0,85785.125,90032.33594,98.21244812,0,0,0,9.77179718,0.08434772491,-1.128545403,0.005504039116,0.00557055464,0.001579709467,-28.30220795,-8.51149559,-6.721741199,33.83975983,-12.8878994,6593.214844,12.26768208,0.1305260062,32.86000061,0,0,0,0,0,0,0,0,0,0,0,0,0,0,0,2,1,1,0,0,1,1,0,0
254,162,153,1,1,180,41014,0,85788.17188,90042.40625,98.21304321,0,0,0,9.768078804,0.07341571897,-1.14179647,0.002145078965,0.004456443246,-0.000482227013,-28.12029076,-8.546913147,-6.582277775,34.00296021,-12.86933422,6649.449219,12.26768208,0.1303390115,32.86000061,0,0,0,0,0,0,0,0,0,0,0,0,0,0,0,2,1,1,0,0,1,1,0,0
254,162,154,1,1,180,41264,0,85790.57031,90052.46875,98.3162384,0,0,0,9.76406002,0.05993803963,-1.140456319,0.0004655985394,0.004705870524,0.001829136861,-28.01648521,-8.369837761,-6.721740723,33.64080429,-13.09743118,6524.84082,12.26768208,0.1303390115,32.86000061,0,0,0,0,0,0,0,0,0,0,0,0,0,0,0,2,1,1,0,0,1,1,0,0
254,162,155,1,1,180,41514,0,85787.57812,90052.46875,98.31491852,0,0,0,9.779981613,0.04900609329,-1.125567555,-0.0009644539678,0.004323414527,0.001230510534,-28.78176117,-7.944859982,-6.931027412,34.0202179,-12.85473156,6655.403809,12.26768208,0.1307130009,32.86000061,0,0,0,0,0,0,0,0,0,0,0,0,0,0,0,2,1,1,0,0,1,1,0,0
254,162,156,1,1,180,41764,0,85789.42188,90032.33594,98.21246338,0,0,0,9.766499519,0.05371648818,-1.149011135,0.009932768531,0.00562749384,0.001289970009,-28.59476471,-8.157349586,-6.652024269,33.47353745,-13.12314034,6467.513184,12.26496315,0.1303390115,32.86999893,0,0,0,0,0,0,0,0,0,0,0,0,0,0,0,2,1,1,0,0,1,1,0,0
254,162,157,1,1,180,42014,0,85789.32812,90052.46875,98.41699982,0,0,0,9.775814056,0.06622765213,-1.134054303,0.002477649599,0.004872156307,0.0003658274654,-28.41111374,-8.01568985,-6.652060509,33.2650032,-13.33842754,6396.246094,12.26496315,0.1303390115,32.86999893,0,0,0,0,0,0,0,0,0,0,0,0,0,0,0,2,1,1,0,0,1,1,0,0
254,162,158,1,1,180,42264,0,85791.48438,90052.46875,98.31347656,0,0,0,9.772542953,0.04915581644,-1.168448091,0.002510906197,0.004622728564,0.001529823872,-28.50983238,-8.228179932,-6.512567997,33.26087189,-13.33812046,6394.834961,12.26496315,0.1303390115,32.86999893,0,0,0,0,0,0,0,0,0,0,0,0,0,0,0,2,1,1,0,0,1,1,0,0
254,162,159,1,1,180,42514,0,85787.07812,90042.40625,98.21356201,0,0,0,9.770307541,0.06473012269,-1.13628757,-0.002577420324,0.004689241759,-0.0007316548144,-28.23085976,-8.086520195,-6.931145191,33.42218399,-13.32499599,6449.941895,12.26496315,0.1305260062,32.86999893,0,0,0,0,0,0,0,0,0,0,0,0,0,0,0,2,1,1,0,0,1,1,0,0
254,162,160,1,1,180,42764,0,85787.49219,90052.46875,98.31291962,0,0,0,9.778331757,0.04790792987,-1.110173225,-0.001435091603,0.004095654003,0.0004998634104,-28.41795349,-8.15735054,-6.931125164,33.10385132,-13.3488884,6341.328125,12.26237965,0.1303390115,32.86999893,0,0,0,0,0,0,0,0,0,0,0,0,0,0,0,2,1,1,0,0,1,1,0,0
254,162,161,1,1,180,43014,0,85788.97656,90022.25781,98.31464386,0,0,0,9.759895325,0.07101973891,-1.148496509,0.005071697757,0.005520668346,0.0008979399572,-28.52695084,-8.228182793,-6.44290638,33.31962204,-13.12873173,6414.890137,12.26237965,0.1305260062,32.88000107,0,0,0,0,0,0,0,0,0,0,0,0,0,0,0,2,1,1,0,0,1,1,0,0
254,162,162,1,1,180,43264,0,85789.8125,90062.55469,98.31483459,0,0,0,9.790692329,0.07101973891,-1.144774199,-0.001563080819,0.005021813326,0.002244849922,-28.7003231,-8.01568985,-6.512568951,33.68363953,-12.89833069,6539.543945,12.26237965,0.1303390115,32.88000107,0,0,0,0,0,0,0,0,0,0,0,0,0,0,0,2,1,1,0,0,1,1,0,0
254,162,163,1,1,180,43514,0,85789.0625,89981.96875,98.41713715,0,0,0,9.748885155,0.06143556908,-1.140456676,0.001513195224,0.005005184561,0.001945536234,-28.89081383,-8.299010277,-6.86135006,33.8678093,-12.8543663,6602.869141,12.26237965,0.1305260062,32.88000107,0,0,0,0,0,0,0,0,0,0,0,0,0,0,0,2,1,1,0,0,1,1,0,0
254,162,164,1,1,180,43764,0,85791.00781,90042.40625,98.41672516,0,0,0,9.780575752,0.05799125507,-1.13196981,0.006701293401,0.005271241069,8.314252773e-05,-28.31925964,-8.01568985,-6.652080059,33.25803757,-13.33436871,6393.869141,12.26088905,0.1303390115,32.88000107,0,0,0,0,0,0,0,0,0,0,0,0,0,0,0,2,1,1,0,0,1,1,0,0
254,162,165,1,1,180,44014,0,85786.85938,90052.46875,98.41759491,0,0,0,9.795497894,0.04703661427,-1.12215662,-3.224931061e-05,0.003902158933,0.001676960848,-28.22743416,-8.086520195,-7.140394211,41.80810165,14.05483055,1416.71106,12.26088905,0.1303390115,32.88000107,0,0,0,0,0,0,0,0,0,0,0,0,0,0,0,2,1,1,0,1,1,1,0,0
254,162,166,1,1,180,44264,0,85790.61719,90042.40625,98.41609955,0,0,0,9.774622917,0.08449748158,-1.146561027,0.001080853748,0.004340043291,6.651409058e-05,-28.5063591,-7.944859982,-7.000842094,41.80809402,14.05483818,1415.727051,12.26088905,0.1305260062,32.88000107,0,0,0,0,0,0,0,0,0,0,0,0,0,0,0,2,1,1,0,1,1,1,0,0
254,162,167,1,1,180,44514,0,85790.71094,90042.40625,98.41562653,0,0,0,9.771946907,0.06517938524,-1.139563084,0.008613573387,0.006019523833,0.001845765393,-27.94501305,-8.29901123,-7.070658207,41.80810165,14.05482864,1416.546997,12.26088905,0.1305260062,32.88999939,0,0,0,0,0,0,0,0,0,0,0,0,0,0,0,2,1,1,0,1,1,1,0,0
254,162,168,1,1,180,44764,0,85790.61719,89992.03906,98.51776123,0,0,0,9.784593582,0.06413111836,-1.152367711,-0.00119725347,0.004323414993,0.001945536584,-28.60848236,-8.15735054,-6.791612625,41.80809402,14.05483532,1415.866943,12.25850964,0.1305260062,32.88999939,0,0,0,0,0,0,0,0,0,0,0,0,0,0,0,2,1,1,0,1,1,1,0,0
254,162,169,1,1,180,45014,0,85788.03125,89981.96875,98.21290588,0,0,0,9.755133629,0.05933900177,-1.138818622,-0.0003159418993,0.005071697757,0.002012050478,-28.68996811,-8.015691757,-6.791535378,41.80809784,14.05483246,1416.100952,12.25850964,0.1303390115,32.88999939,0,0,0,0,0,0,0,0,0,0,0,0,0,0,0,2,1,1,0,1,1,1,0,0
254,162,170,1,1,180,45264,0,85787.22656,90042.40625,98.41742706,0,0,0,9.768821716,0.08299995214,-1.154601216,0.002643934917,0.005221354775,0.0003325703437,-28.12877274,-8.157349586,-6.931106567,41.80810547,14.05482197,1416.845947,12.25850964,0.1303390115,32.88999939,0,0,0,0,0,0,0,0,0,0,0,0,0,0,0,2,1,1,0,1,1,1,0,0
254,162,171,1,1,180,45514,0,85790.78125,90052.46875,98.41655731,0,0,0,9.775284767,0.05744050071,-1.131504178,0.005681589246,0.004943498876,0.001493348158,-28.23086357,-8.440672874,-6.791631699,41.80812454,14.05480766,1418.224976,12.25850964,0.1303390115,32.88999939,0,0,0,0,0,0,0,0,0,0,0,0,0,0,0,2,1,1,0,1,1,1,0,0
254,162,172,1,1,180,45764,0,85790.59375,90062.55469,98.4159317,0,0,0,9.75379467,0.06502959877,-1.137925386,0.00512158405,0.003791302443,0.001712737372,-28.99647522,-8.369842529,-6.721895695,41.80814743,14.05478764,1420.133057,12.25624943,0.1305260062,32.90000153,0,0,0,0,0,0,0,0,0,0,0,0,0,0,0,2,1,1,0,1,1,1,0,0
254,162,173,1,1,180,46014,0,85790.92188,90052.46875,97.5969162,0,0,0,9.764656067,0.0636818558,-1.156685352,0.005736839026,0.00480564218,0.001463309396,-28.13047409,-8.01568985,-6.68696785,41.80817413,14.05475998,1422.619019,12.25624943,0.1305260062,32.90000153,0,0,0,0,0,0,0,0,0,0,0,0,0,0,0,2,1,1,0,1,1,1,0,0
254,162,174,1,1,180,46264,0,85792.63281,90052.46875,98.41733551,0,0,0,9.759596825,0.06458037347,-1.136734366,0.001812508446,0.005936380476,0.0004489700659,-28.32612801,-8.15735054,-6.861388206,41.80820847,14.05473328,1425.121948,12.25624943,0.1303390115,32.90000153,0,0,0,0,0,0,0,0,0,0,0,0,0,0,0,2,1,1,0,1,1,1,0,0
254,162,175,1,1,180,46514,0,85790.33594,90042.40625,98.51810455,0,0,0,9.761383057,0.06143550947,-1.145965338,0.002893362194,0.004556214437,0.001646223478,-28.13891983,-8.299012184,-6.721895695,41.80821991,14.05472279,1426.135986,12.25624943,0.1305260062,32.90000153,0,0,0,0,0,0,0,0,0,0,0,0,0,0,0,2,1,1,0,1,1,1,0,0
254,162,176,1,1,180,46764,0,85792.45312,90052.46875,98.31523895,0,0,0,9.770971298,0.04790792987,-1.166769505,0.002789559308,0.004660015926,0.001289970241,-28.0335083,-8.582332611,-6.791592121,41.80825424,14.05468941,1429.095947,12.25362015,0.1305260062,32.90000153,0,0,0,0,0,0,0,0,0,0,0,0,0,0,0,2,1,1,0,1,1,1,0,0
254,162,177,1,1,180,47014,0,85788.89062,89981.96875,98.51856995,0,0,0,9.794856071,0.06742564589,-1.149241209,0.002145078965,0.004988555331,4.988555884e-05,-28.60507202,-8.440670967,-6.65208149,41.80829239,14.05465889,1431.993042,12.25362015,0.1303390115,32.90000153,0,0,0,0,0,0,0,0,0,0,0,0,0,0,0,2,1,1,0,1,1,1,0,0
254,162,178,1,1,180,47264,0,85789.6875,90052.46875,97.70173645,0,0,0,9.785931587,0.0573922433,-1.150283456,0.0009810826741,0.005670325365,0.001679480192,-28.62560272,-8.369846344,-6.582437515,41.80832672,14.05462837,1434.69397,12.25362015,0.1303390115,32.90999985,0,0,0,0,0,0,0,0,0,0,0,0,0,0,0,2,1,1,0,1,1,1,0,0
254,162,179,1,1,180,47514,0,85788.91406,90052.46875,97.69933319,0,0,0,9.767333984,0.07446402311,-1.127652049,0.0004157129151,0.004639356397,0.00197879388,-28.4350872,-8.228181839,-6.721952438,41.8083725,14.05458927,1438.276978,12.25362015,0.1303390115,32.90999985,0,0,0,0,0,0,0,0,0,0,0,0,0,0,0,2,1,1,0,1,1,1,0,0
254,162,180,1,1,180,47764,0,85790.90625,90052.46875,98.41569519,0,0,0,9.756324768,0.06922270358,-1.128545165,0.003857816337,0.004772385117,0.0002660562459,-28.61533737,-8.582334518,-6.861408234,41.80840683,14.05455971,1441.112061,12.25232697,0.1303390115,32.90999985,0,0,0,0,0,0,0,0,0,0,0,0,0,0,0,2,1,1,0,1,1,1,0,0
254,162,181,1,1,180,48014,0,85792.28906,90052.46875,98.41684723,0,0,0,9.774579048,0.06765712053,-1.134428859,0.006498223171,0.005901612341,0.001547963941,-28.72438049,-8.440676689,-7.280029297,41.80844116,14.05452919,1443.921021,12.25232697,0.1305260062,32.90999985,0,0,0,0,0,0,0,0,0,0,0,0,0,0,0,2,1,1,0,1,1,1,0,0
254,162,182,1,1,180,48264,0,85790.13281,90052.46875,97.90506744,0,0,0,9.779278755,0.07212595642,-1.130735278,0.0012702042,0.004754683003,0.001338864095,-28.82313156,-8.299015045,-6.721991062,41.80846405,14.05450726,1445.880005,12.25232697,0.1305260062,32.90999985,0,0,0,0,0,0,0,0,0,0,0,0,0,0,0,2,1,1,0,1,1,1,0,0
254,162,183,1,1,180,48514,0,85791.80469,90042.40625,98.41357422,0,0,0,9.80065918,0.04975485802,-1.126907587,0.001446680981,0.005487411283,0.003159418236,-28.1526413,-8.369846344,-6.861486912,41.80848312,14.05449104,1447.402954,12.25232697,0.1303390115,32.91999817,0,0,0,0,0,0,0,0,0,0,0,0,0,0,0,2,1,1,0,1,1,1,0,0
254,162,184,1,1,180,48764,0,85790.64062,90052.46875,98.41492462,0,0,0,9.747549057,0.08689349145,-1.134649873,0.002377878176,0.005287869368,0.0007649118197,-28.05055237,-8.01568985,-6.791691303,41.80849457,14.0544796,1448.292969,12.24989414,0.1303390115,32.91999817,0,0,0,0,0,0,0,0,0,0,0,0,0,0,0,2,1,1,0,1,1,1,0,0
254,162,185,1,1,180,49014,0,85790.75781,90052.46875,98.51770782,0,0,0,9.778938293,0.08000487089,-1.147603512,0.004057358485,0.006119294092,0.001080853748,-27.95526886,-8.511507034,-6.931206226,41.8085022,14.05447388,1449.011963,12.24989414,0.1303390115,32.91999817,0,0,0,0,0,0,0,0,0,0,0,0,0,0,0,2,1,1,0,1,1,1,0,0
254,162,186,1,1,180,49264,0,85789.49219,90062.55469,98.41635895,0,0,0,9.784145355,0.05888977274,-1.140456557,0.003841187805,0.004672613926,0.001745994203,-28.14923096,-8.157352448,-6.721952438,41.8085022,14.05447388,1448.990967,12.24989414,0.1303390115,32.91999817,0,0,0,0,0,0,0,0,0,0,0,0,0,0,0,2,1,1,0,1,1,1,0,0
254,162,187,1,1,180,49514,0,85790.9375,90062.55469,98.51823425,0,0,0,9.777464867,0.05531387031,-1.142225266,0.0007578572258,0.005562995095,0.001596337999,-28.26839828,-8.2281847,-6.86160183,41.80849457,14.05448151,1448.22998,12.24989414,0.1303390115,32.91999817,0,0,0,0,0,0,0,0,0,0,0,0,0,0,0,2,1,1,0,1,1,1,0,0
254,162,188,1,1,180,49764,0,85788.29688,89981.96875,98.41573334,0,0,0,9.77626133,0.06338234991,-1.127205372,0.005304497667,0.005520668812,0.001995422412,-28.43852997,-8.299015045,-7.001000404,41.80848312,14.05448818,1447.56897,12.24758244,0.1303390115,32.91999817,0,0,0,0,0,0,0,0,0,0,0,0,0,0,0,2,1,1,0,1,1,1,0,0
254,162,189,1,1,180,50014,0,85790.63281,90042.40625,98.51776123,0,0,0,9.775961876,0.07326599956,-1.137181044,0.006285579875,0.004340043291,0.001745994319,-28.73129272,-8.086522102,-7.140554428,41.80847549,14.05449486,1446.970947,12.24758244,0.1303390115,32.93000031,0,0,0,0,0,0,0,0,0,0,0,0,0,0,0,2,1,1,0,1,1,1,0,0
254,162,190,1,1,180,50264,0,85791.64062,90042.40625,97.80158997,0,0,0,9.764060974,0.06278333813,-1.150432229,0.001612966182,0.00488878414,0.002244850155,-28.35012054,-8.369848251,-6.652252197,41.80847168,14.05449963,1446.48999,12.24758244,0.1303390115,32.93000031,0,0,0,0,0,0,0,0,0,0,0,0,0,0,0,2,1,1,0,1,1,1,0,0
254,162,191,1,1,180,50514,0,85788.89844,90062.55469,98.6199646,0,0,0,9.767780304,0.06487984955,-1.162343502,0.001213881769,0.006268952042,0.0005487411399,-28.83003426,-7.944858551,-6.722029209,41.80845642,14.05451012,1445.51001,12.24758244,0.1303390115,32.93000031,0,0,0,0,0,0,0,0,0,0,0,0,0,0,0,2,1,1,0,1,1,1,0,0
254,162,192,1,1,180,50764,0,85790.48438,90062.55469,98.51782227,0,0,0,9.757367134,0.06982171535,-1.142689943,0.003309075255,0.006252323277,0.0004157129442,-28.43853951,-7.944858551,-6.861485481,41.80844498,14.05452347,1444.31604,12.24586868,0.1303390115,32.93000031,0,0,0,0,0,0,0,0,0,0,0,0,0,0,0,2,1,1,0,1,1,1,0,0
254,162,193,1,1,180,51014,0,85788.54688,90052.46875,98.41540527,0,0,0,9.762171745,0.06083202362,-1.144535422,0.0004998633522,0.005562995095,0.001693085418,-28.6394043,-8.157354355,-6.582513809,41.80842972,14.05453587,1443.015015,12.24586868,0.1305260062,32.93000031,0,0,0,0,0,0,0,0,0,0,0,0,0,0,0,2,1,1,0,1,1,1,0,0
254,162,194,1,1,180,51264,0,85790,90042.40625,97.80256653,0,0,0,9.771601677,0.06671553105,-1.150408149,0.003021026496,0.004909167998,0.001218709396,-28.54069138,-8.369848251,-6.931283474,41.80841446,14.05455017,1441.845947,12.24586868,0.1305260062,32.93000031,0,0,0,0,0,0,0,0,0,0,0,0,0,0,0,2,1,1,0,1,1,1,0,0
254,162,195,1,1,180,51514,0,85788.10156,89981.96875,98.51895142,0,0,0,9.789260864,0.06826134771,-1.159322739,0.004531539045,0.005801743828,0.001407523523,-28.07100105,-8.299016953,-6.931323528,41.80839539,14.05456448,1440.404053,12.24586868,0.1305260062,32.93999863,0,0,0,0,0,0,0,0,0,0,0,0,0,0,0,2,1,1,0,1,1,1,0,0
254,162,196,1,1,180,51764,0,85787.91406,90002.11719,98.51834869,0,0,0,9.771796227,0.04616079479,-1.142987609,0.006684665103,0.003891072934,-0.0002826848067,-28.45223808,-7.944858074,-7.070839405,41.8083725,14.0545826,1438.724976,12.24496269,0.1305260062,32.93999863,0,0,0,0,0,0,0,0,0,0,0,0,0,0,0,2,1,1,0,1,1,1,0,0
254,162,197,1,1,180,52014,0,85791.60938,89992.03906,99.12635803,0,0,0,9.770011902,0.06592811644,-1.15728128,0.006152552087,0.006086037494,0.001147367875,-28.16291046,-8.086522102,-6.722029686,41.80835342,14.05460167,1437.055054,12.24496269,0.1303390115,32.93999863,0,0,0,0,0,0,0,0,0,0,0,0,0,0,0,2,1,1,0,1,1,1,0,0
254,162,198,1,1,180,52264,0,85792.25781,89992.03906,98.51790619,0,0,0,9.781764984,0.02519538999,-1.129885435,0.006568265613,0.004323414993,0.00241113524,-28.35351562,-8.157352448,-6.652271271,41.80875397,14.05425167,1470.256958,12.24496269,0.130152002,32.93999863,0,0,0,0,0,0,0,0,0,0,0,0,0,0,0,2,1,1,0,1,1,1,0,0
254,162,199,1,1,180,52514,0,85792.04688,90062.55469,99.12734222,0,0,0,9.757661819,0.05709271133,-1.146263361,-3.325709986e-05,0.00523798354,0.001513195341,-28.3432045,-8.299014091,-6.721971512,41.80887222,14.05415154,1479.616943,12.24496269,0.1303390115,32.93999863,0,0,0,0,0,0,0,0,0,0,0,0,0,0,0,2,1,1,0,1,1,1,0,0
254,162,200,1,1,180,52764,0,85790.54688,90012.1875,98.51926422,0,0,0,9.768522263,0.06892319769,-1.157430053,0.003990844358,0.00435667159,0.002278107218,-28.26845932,-7.732361794,-6.652328968,41.80896378,14.05407047,1487.343018,12.24410248,0.1305260062,32.93999863,0,0,0,0,0,0,0,0,0,0,0,0,0,0,0,2,1,1,0,1,1,1,0,0
